[
  {
    "name": "Muğla Eğitim Araştırma Hastanesi",
    "lat": 37.2128,
    "lon": 28.3612,
    "risk": 0.101,
    "priority": 1,
    "poi_type": "hospital"
  },
  {
    "name": "Marmaris Devlet Hastanesi",
    "lat": 36.8595,
    "lon": 28.2794,
    "risk": 0.577,
    "priority": 1,
    "poi_type": "hospital"
  },
  {
    "name": "Bodrum Devlet Hastanesi",
    "lat": 37.035,
    "lon": 27.432,
    "risk": 0.537,
    "priority": 1,
    "poi_type": "hospital"
  },
  {
    "name": "Fethiye Devlet Hastanesi",
    "lat": 36.6516,
    "lon": 29.1258,
    "risk": 0.424,
    "priority": 1,
    "poi_type": "hospital"
  },
  {
    "name": "Köyceğiz Devlet Hastanesi",
    "lat": 36.9708,
    "lon": 28.6795,
    "risk": 0.385,
    "priority": 1,
    "poi_type": "hospital"
  },
  {
    "name": "Milas İlçe Merkezi",
    "lat": 37.3125,
    "lon": 27.7787,
    "risk": 0.312,
    "priority": 0.9,
    "poi_type": "school"
  },
  {
    "name": "Datça İlçe Merkezi",
    "lat": 36.7231,
    "lon": 27.6886,
    "risk": 0.428,
    "priority": 0.9,
    "poi_type": "school"
  },
  {
    "name": "Ortaca İlçe Merkezi",
    "lat": 36.8352,
    "lon": 28.7689,
    "risk": 0.509,
    "priority": 0.9,
    "poi_type": "school"
  },
  {
    "name": "Yatağan İlçe Merkezi",
    "lat": 37.3327,
    "lon": 28.1353,
    "risk": 0.357,
    "priority": 0.9,
    "poi_type": "school"
  },
  {
    "name": "Seydikemer Merkezi",
    "lat": 36.7526,
    "lon": 28.9962,
    "risk": 0.296,
    "priority": 0.9,
    "poi_type": "school"
  },
  {
    "name": "Turunç Köyü",
    "lat": 36.7714,
    "lon": 28.277,
    "risk": 0.681,
    "priority": 0.85,
    "poi_type": "village"
  },
  {
    "name": "Bayır Köyü",
    "lat": 36.9179,
    "lon": 28.3473,
    "risk": 0.432,
    "priority": 0.75,
    "poi_type": "village"
  },
  {
    "name": "Hisarönü (Marmaris)",
    "lat": 36.8145,
    "lon": 28.1616,
    "risk": 0.386,
    "priority": 0.75,
    "poi_type": "village"
  },
  {
    "name": "Orhaniye Köyü",
    "lat": 36.8978,
    "lon": 28.222,
    "risk": 0.641,
    "priority": 0.85,
    "poi_type": "village"
  },
  {
    "name": "Selimiye Köyü",
    "lat": 36.8253,
    "lon": 28.1909,
    "risk": 0.472,
    "priority": 0.75,
    "poi_type": "village"
  },
  {
    "name": "Çamlı Köyü",
    "lat": 36.8737,
    "lon": 28.1681,
    "risk": 0.863,
    "priority": 0.85,
    "poi_type": "village"
  },
  {
    "name": "Çetibeli Köyü",
    "lat": 36.9281,
    "lon": 28.2119,
    "risk": 0.575,
    "priority": 0.75,
    "poi_type": "village"
  },
  {
    "name": "Karaca Köyü",
    "lat": 36.9471,
    "lon": 28.149,
    "risk": 0.268,
    "priority": 0.75,
    "poi_type": "village"
  },
  {
    "name": "Karacasöğüt Köyü",
    "lat": 36.9485,
    "lon": 28.101,
    "risk": 0.668,
    "priority": 0.85,
    "poi_type": "village"
  },
  {
    "name": "Gökova Köyü",
    "lat": 37.0331,
    "lon": 28.3533,
    "risk": 0.599,
    "priority": 0.75,
    "poi_type": "village"
  },
  {
    "name": "Kıran Köyü",
    "lat": 37.0459,
    "lon": 28.3247,
    "risk": 0.677,
    "priority": 0.85,
    "poi_type": "village"
  },
  {
    "name": "Kuyucak Köyü",
    "lat": 37.0688,
    "lon": 28.2961,
    "risk": 0.609,
    "priority": 0.85,
    "poi_type": "village"
  },
  {
    "name": "Sarnıç Köyü",
    "lat": 37.0232,
    "lon": 28.3956,
    "risk": 0.327,
    "priority": 0.75,
    "poi_type": "village"
  },
  {
    "name": "Çiçekli Köyü",
    "lat": 37.103,
    "lon": 28.4496,
    "risk": 0.645,
    "priority": 0.85,
    "poi_type": "village"
  },
  {
    "name": "Armutçuk Köyü",
    "lat": 37.1189,
    "lon": 28.4174,
    "risk": 0.079,
    "priority": 0.75,
    "poi_type": "village"
  },
  {
    "name": "Kıyra Köyü",
    "lat": 37.0801,
    "lon": 28.4669,
    "risk": 0.463,
    "priority": 0.75,
    "poi_type": "village"
  },
  {
    "name": "Emecik Köyü",
    "lat": 36.7778,
    "lon": 27.5798,
    "risk": 0.879,
    "priority": 0.85,
    "poi_type": "village"
  },
  {
    "name": "Kovanlık Köyü",
    "lat": 36.752,
    "lon": 27.6187,
    "risk": 0.49,
    "priority": 0.75,
    "poi_type": "village"
  },
  {
    "name": "Döğüşbelen Köyü",
    "lat": 37.0225,
    "lon": 28.7012,
    "risk": 0.586,
    "priority": 0.75,
    "poi_type": "village"
  },
  {
    "name": "Hamitköy",
    "lat": 36.9458,
    "lon": 28.7205,
    "risk": 0.233,
    "priority": 0.75,
    "poi_type": "village"
  },
  {
    "name": "Kavaklıdere Çiftliği",
    "lat": 37.4359,
    "lon": 28.3873,
    "risk": 0.485,
    "priority": 0.65,
    "poi_type": "farm"
  },
  {
    "name": "Menteşe Ahırları",
    "lat": 37.1838,
    "lon": 28.2999,
    "risk": 0.431,
    "priority": 0.65,
    "poi_type": "farm"
  },
  {
    "name": "Çamarası Çiftliği",
    "lat": 37.0588,
    "lon": 27.5469,
    "risk": 0.366,
    "priority": 0.65,
    "poi_type": "farm"
  },
  {
    "name": "Sakar Ormanı Ahır",
    "lat": 37.0482,
    "lon": 28.598,
    "risk": 0.453,
    "priority": 0.65,
    "poi_type": "farm"
  },
  {
    "name": "Yatağan Büyükbaş",
    "lat": 37.3529,
    "lon": 28.1529,
    "risk": 0.245,
    "priority": 0.65,
    "poi_type": "farm"
  },
  {
    "name": "Milas Küçükbaş",
    "lat": 37.2867,
    "lon": 27.8187,
    "risk": 0.319,
    "priority": 0.65,
    "poi_type": "farm"
  }
]